[
  {
    "name": "Whitewater State Park (Middle Branch Whitewater)",
    "lat": 44.0590, "lon": -92.0450,
    "type": "wading_access",
    "access": "fee",
    "agency_url": "https://www.dnr.state.mn.us/areas/fisheries/crystalsprings_hatchery/stocking.html",
    "notes": "State park vehicle permit required; stocked plus wild browns."
  },
  {
    "name": "Lanesboro State Fish Hatchery / Root River (Lanesboro)",
    "lat": 43.7180, "lon": -91.9750,
    "type": "walk_in",
    "access": "public",
    "agency_url": "https://www.dnr.state.mn.us/areas/fisheries/lanesboro-hatchery/index.html",
    "notes": "Town reach near the dam and DNR coldwater hatchery."
  },
  {
    "name": "Forestville/Mystery Cave State Park (South Branch Root)",
    "lat": 43.6360, "lon": -92.2260,
    "type": "wading_access",
    "access": "fee",
    "agency_url": "https://www.dnr.state.mn.us/areas/fisheries/lanesboro/opportunities/fillmore.html",
    "notes": "State park vehicle permit required; classic Driftless water."
  },
  {
    "name": "French River mouth (Scenic Hwy 61)",
    "lat": 46.8960, "lon": -91.9010,
    "type": "walk_in",
    "access": "public",
    "agency_url": "https://files.dnr.state.mn.us/areas/fisheries/lakesuperior/2019_french_river_trap_report.pdf",
    "notes": "Spring steelhead run; DNR fish trap on lower river."
  },
  {
    "name": "Lester Park (Lester River, Duluth)",
    "lat": 46.8410, "lon": -92.0040,
    "type": "walk_in",
    "access": "public",
    "agency_url": "https://www.dnr.state.mn.us/areas/fisheries/lakesuperior/management.html",
    "notes": "City park on a stocked steelhead tributary of Lake Superior."
  }
]
