[
  {
    "name": "Danby Fishing Access (Otter Creek)",
    "lat": 43.3460, "lon": -72.9990,
    "type": "parking",
    "access": "public",
    "agency_url": "https://www.vtfishandwildlife.com/fish/fishing-opportunities/trophy-trout",
    "notes": "VTF&W access at the foot of the Danby-Mt. Tabor trophy reach."
  },
  {
    "name": "Route 2 bridge east of Waterbury (Winooski River)",
    "lat": 44.3370, "lon": -72.7280,
    "type": "parking",
    "access": "public",
    "agency_url": "https://www.vtfishandwildlife.com/fish/fishing-opportunities/trophy-trout",
    "notes": "Upper boundary of the Waterbury-Duxbury trophy section."
  },
  {
    "name": "Fairfax Falls Dam (Lamoille River)",
    "lat": 44.6500, "lon": -72.9880,
    "type": "walk_in",
    "access": "public",
    "agency_url": "https://www.vtfishandwildlife.com/fish/fishing-opportunities/trophy-trout",
    "notes": "Top of the Fairfax trophy trout section."
  },
  {
    "name": "Former Vermont Tissue Plant Dam (Walloomsac River, Bennington)",
    "lat": 42.8970, "lon": -73.2320,
    "type": "walk_in",
    "access": "public",
    "agency_url": "https://www.vtfishandwildlife.com/fish/fishing-opportunities/trophy-trout",
    "notes": "Upper end of the Walloomsac trophy section, downstream of Murphy Rd."
  },
  {
    "name": "Otter Creek Wildlife Management Area (Danby)",
    "lat": 43.3780, "lon": -73.0020,
    "type": "walk_in",
    "access": "public",
    "agency_url": "https://fpr.vermont.gov/otter-creek-wildlife-management-area",
    "notes": "Coldwater fishery with brook, brown and rainbow trout."
  }
]
