[
  {
    "name": "Brule River State Forest (Bois Brule at US-2, Brule)",
    "lat": 46.5340, "lon": -91.5930,
    "type": "walk_in",
    "access": "public",
    "agency_url": "https://dnr.wisconsin.gov/topic/StateForests/bruleriver/recreation/fishing",
    "notes": "Wild brown trout and Lake Superior steelhead water in the state forest."
  },
  {
    "name": "Willow River State Park (Willow Falls)",
    "lat": 45.0170, "lon": -92.7080,
    "type": "walk_in",
    "access": "fee",
    "agency_url": "https://dnr.wisconsin.gov/topic/parks/willowriver/recreation/fishing",
    "notes": "Stocked trout fishery; state park vehicle admission sticker required."
  },
  {
    "name": "Kinnickinnic River Fishery Area (below River Falls)",
    "lat": 44.8450, "lon": -92.6500,
    "type": "walk_in",
    "access": "public",
    "agency_url": "https://dnr.wisconsin.gov/topic/Lands/FisheriesAreas/kinnickinnic.html",
    "notes": "14 DNR parking lots serve this Class 1 wild brown trout stream."
  },
  {
    "name": "Root River Steelhead Facility / Lincoln Park (Racine)",
    "lat": 42.7390, "lon": -87.8030,
    "type": "walk_in",
    "access": "public",
    "agency_url": "https://dnr.wisconsin.gov/topic/Fishing/lakemichigan/ROOTRIVER",
    "notes": "Spring and fall steelhead runs near the DNR egg-take facility."
  },
  {
    "name": "Besadny Anadromous Fish Facility (Kewaunee River)",
    "lat": 44.4690, "lon": -87.5560,
    "type": "walk_in",
    "access": "public",
    "agency_url": "https://dnr.wisconsin.gov/topic/Fishing/hatcheries/spawning",
    "notes": "DNR spawning facility; public bank access on the lower Kewaunee."
  }
]
